,City,Lat,Lon,Temp,Humidity,Cloudiness,Wind Speed,Country,Date
0,Arraial do Cabo,-22.9661,-42.0278,294.07,68,75,2.57,BR,1633729266
1,Māndleshwar,22.1833,75.6667,300.37,65,65,0.5,IN,1633729268
2,Broome,42.2506,-75.833,294.24,70,1,0.45,US,1633729270
3,Punta Arenas,-53.15,-70.9167,282.21,40,20,15.95,CL,1633729040
4,Margate,51.3813,1.3862,285.86,82,7,1.34,GB,1633729273
5,Rikitea,-23.1203,-134.9692,296.77,75,25,4.92,PF,1633729056
6,Tiksi,71.6872,128.8694,267.31,79,100,6.73,RU,1633729275
7,Atuona,-9.8,-139.0333,298.67,74,3,6.45,PF,1633729277
8,Pacific Grove,36.6177,-121.9166,290.02,62,20,1.79,US,1633729071
9,Busselton,-33.65,115.3333,282.62,70,75,4.17,AU,1633729066
10,Nanortalik,60.1432,-45.2371,276.21,60,6,1.65,GL,1633729181
11,Lüderitz,-26.6481,15.1594,287.09,64,1,3.6,NA,1633729282
12,Takoradze,4.8845,-1.7554,298.62,89,79,3.2,GH,1633729283
13,Port-Gentil,-0.7193,8.7815,299.13,89,90,4.12,GA,1633729285
14,Benito Juarez,19.385,-99.165,295.74,44,90,0.89,MX,1633729286
15,Cairns,-16.9167,145.7667,298.2,82,40,3.09,AU,1633729288
16,Baykit,61.67,96.37,276.06,98,100,4.22,RU,1633729289
17,Thompson,55.7435,-97.8558,285.24,40,20,1.03,CA,1633729291
18,Vaini,-21.2,-175.2,300.24,83,20,2.06,TO,1633729292
19,Lorengau,-2.0226,147.2712,301.77,67,34,2.95,PG,1633729295
20,Bandarbeyla,9.4942,50.8122,298.91,81,87,7.82,SO,1633729296
21,Isangel,-19.55,169.2667,302.21,58,20,0.0,VU,1633729298
22,Albany,42.6001,-73.9662,293.12,78,86,1.19,US,1633728837
23,Santa Marta,11.2408,-74.199,301.52,84,6,5.93,CO,1633729300
24,Salalah,17.0151,54.0924,300.2,78,20,1.54,OM,1633729302
25,East London,-33.0153,27.9116,290.95,79,22,5.66,ZA,1633729073
26,Sai Buri,6.7013,101.6168,299.72,88,97,2.69,TH,1633729304
27,Narsaq,60.9167,-46.05,275.27,53,0,1.39,GL,1633729306
28,Cherskiy,68.75,161.3,255.87,97,90,1.56,RU,1633729310
29,Wau,7.7029,27.9953,296.78,81,84,1.57,SS,1633729311
30,Dikson,73.5069,80.5464,271.09,73,100,13.5,RU,1633729042
31,Mataura,-46.1927,168.8643,283.97,99,100,1.42,NZ,1633729315
32,Hualmay,-11.0964,-77.6139,291.76,82,46,5.45,PE,1633729317
33,Khovd,48.0056,91.6419,271.48,47,2,1.54,MN,1633729156
34,Ostrovnoy,68.0531,39.5131,276.07,89,100,2.75,RU,1633729319
35,Angoche,-16.2325,39.9086,295.54,75,0,2.94,MZ,1633729321
36,Hamilton,39.1834,-84.5333,297.12,75,75,2.57,US,1633729085
37,Butaritari,3.0707,172.7902,301.13,73,21,5.51,KI,1633729323
38,Huejuquilla el Alto,22.6,-103.8667,299.74,34,2,3.68,MX,1633729325
39,Hasaki,35.7333,140.8333,294.38,90,78,6.63,JP,1633729326
40,Kaya,13.0917,-1.0844,305.23,23,99,2.95,BF,1633729328
41,Manta,-0.95,-80.7333,296.03,83,20,6.17,EC,1633729329
42,Hithadhoo,-0.6,73.0833,301.08,71,86,2.68,MV,1633729332
43,Mathbaria,22.2876,89.9593,298.64,89,26,1.32,BD,1633729333
44,Ushuaia,-54.8,-68.3,276.96,81,75,13.89,AR,1633729034
45,Saint Paul Harbor,57.79,-152.4072,285.88,47,75,3.6,US,1633729145
46,Barrow,71.2906,-156.7887,273.16,80,90,6.69,US,1633729337
47,High Rock,26.6208,-78.2833,303.16,65,100,1.95,BS,1633729338
48,Bredasdorp,-34.5322,20.0403,289.42,78,99,5.0,ZA,1633729082
49,Ponta do Sol,32.6667,-17.1,294.77,72,67,2.24,PT,1633729341
50,Bontang,0.1333,117.5,297.64,89,99,3.52,ID,1633729342
51,Dmitriyevka,54.75,55.3333,270.9,73,33,2.52,RU,1633729344
52,Puerto Ayora,-0.7393,-90.3518,295.12,88,98,4.92,EC,1633729345
53,Hermanus,-34.4187,19.2345,289.71,86,66,5.63,ZA,1633729064
54,Mahébourg,-20.4081,57.7,294.31,78,40,1.54,MU,1633729348
55,Hong Kong,22.2855,114.1577,299.67,93,100,0.89,HK,1633729327
56,Korla,41.7597,86.1469,278.52,40,0,1.61,CN,1633729048
57,Bluff,-46.6,168.3333,284.15,86,76,3.81,NZ,1633729351
58,Talakan,50.3167,130.3667,277.07,79,92,2.17,RU,1633729353
59,Geraldton,-28.7667,114.6,280.38,93,1,3.6,AU,1633729354
60,Las Palmas,28.4204,-14.0131,294.59,73,20,5.14,ES,1633729356
61,Hobart,-42.8794,147.3294,286.23,67,75,0.45,AU,1633729357
62,Tocache,-8.1842,-76.5125,300.3,66,66,1.13,PE,1633729359
63,Asău,46.4333,26.4,279.66,54,100,2.31,RO,1633729360
64,Vostok,46.4856,135.8833,275.75,71,5,2.26,RU,1633729362
65,Nowe Miasto Lubawskie,53.4208,19.5952,281.54,58,0,3.35,PL,1633729193
66,Senanga,-16.1167,23.2667,298.6,27,31,2.97,ZM,1633729364
67,Upernavik,72.7868,-56.1549,269.8,53,67,2.7,GL,1633729366
68,Jamestown,42.097,-79.2353,296.91,64,75,4.12,US,1633729367
69,Cockburn Town,21.4612,-71.1419,302.13,74,75,5.14,TC,1633729369
70,Cabo San Lucas,22.8909,-109.9124,308.44,46,1,2.06,MX,1633729125
71,Chimbote,-9.0853,-78.5783,292.25,79,84,4.91,PE,1633729371
72,Vila Velha,-20.3297,-40.2925,295.12,73,90,3.6,BR,1633729160
73,Hilo,19.7297,-155.09,299.32,74,90,3.6,US,1633729374
74,Assiut,27.181,31.1837,297.25,47,0,3.73,EG,1633729376
75,Oranjemund,-28.55,16.4333,286.6,86,24,3.1,NA,1633729377
76,Sørland,67.667,12.6934,280.19,95,100,10.1,NO,1633729379
77,Kalemie,-5.9475,29.1947,297.46,45,0,1.74,CD,1633729380
78,Yellowknife,62.456,-114.3525,279.24,61,75,2.57,CA,1633729080
79,Bilibino,68.0546,166.4372,258.18,96,71,1.33,RU,1633729383
80,Port Alfred,-33.5906,26.891,289.91,82,72,4.89,ZA,1633729140
81,Norman Wells,65.282,-126.8329,274.17,93,75,3.09,CA,1633729283
82,Bambanglipuro,-7.95,110.2833,288.49,84,88,2.25,ID,1633729386
83,Grindavik,63.8424,-22.4338,281.41,100,40,5.66,IS,1633729341
84,Esperance,-33.8667,121.9,282.06,71,49,7.64,AU,1633729215
85,Nikolskoye,59.7035,30.7861,282.64,60,100,3.1,RU,1633729061
86,Cape Town,-33.9258,18.4232,287.36,97,75,3.09,ZA,1633728959
87,Karaman Province,37.0833,33.25,284.24,35,2,0.98,TR,1633729393
88,Dunedin,-45.8742,170.5036,284.71,91,100,3.58,NZ,1633729150
89,San Jose,37.3394,-121.895,291.52,42,40,3.58,US,1633728948
90,Pevek,69.7008,170.3133,267.86,82,95,1.49,RU,1633729167
91,Manturovo,58.3353,44.7619,277.72,82,100,2.06,RU,1633729402
92,Tuatapere,-46.1333,167.6833,284.16,82,89,1.89,NZ,1633729403
93,Saint-Augustin,51.226,-58.6502,279.77,65,75,4.99,CA,1633729405
94,Anloga,5.7947,0.8973,300.27,83,100,4.6,GH,1633729406
95,Tasiilaq,65.6145,-37.6368,275.24,79,100,6.16,GL,1633729169
96,Avarua,-21.2078,-159.775,299.18,61,40,2.06,CK,1633729409
97,Saldanha,-33.0117,17.9442,288.38,88,53,3.7,ZA,1633729152
98,Brønnøysund,65.4625,12.1997,284.15,93,75,4.63,NO,1633729412
99,Fairbanks,64.8378,-147.7164,277.07,79,90,3.09,US,1633729184
100,Xinzhou,38.4092,112.7333,284.96,87,100,0.44,CN,1633729414
101,Ust-Maya,60.4167,134.5333,270.19,93,91,1.52,RU,1633729365
102,Jalu,29.0331,21.5482,298.24,24,0,3.59,LY,1633729191
103,Wajima,37.4,136.9,292.67,85,100,6.55,JP,1633729418
104,Balakovo,52.0278,47.8007,279.13,65,3,2.31,RU,1633729419
105,Tuktoyaktuk,69.4541,-133.0374,272.15,100,90,2.57,CA,1633729421
106,New Norfolk,-42.7826,147.0587,285.98,49,91,0.98,AU,1633729422
107,Kedrovyy,56.1667,91.8167,275.38,97,100,5.94,RU,1633729424
108,Garoua,9.3,13.4,299.5,75,100,0.99,CM,1633729425
109,Beisfjord,68.3751,17.5988,278.85,94,100,1.9,NO,1633729427
110,Tura,25.5198,90.2201,295.81,91,4,0.89,IN,1633729428
111,The Valley,18.217,-63.0578,303.2,70,20,4.63,AI,1633729429
112,Yangi Marg`ilon,40.4272,71.7189,285.54,71,49,2.06,UZ,1633729431
113,Lukulu,-14.3707,23.242,298.3,26,67,2.18,ZM,1633729432
114,Pandan,14.0453,124.1694,300.5,87,100,8.63,PH,1633729434
115,Hanna,51.6334,-111.9018,285.9,23,17,2.68,CA,1633729435
116,Poum,-20.2333,164.0167,295.93,68,9,3.51,NC,1633729204
117,Morondava,-20.2833,44.2833,297.24,66,56,0.97,MG,1633729438
118,Aklavik,68.2191,-135.0107,272.61,73,21,2.48,CA,1633729439
119,Yulara,-25.2406,130.9889,294.06,37,11,3.6,AU,1633729441
120,Solenzo,12.1833,-4.0833,300.33,57,90,2.56,BF,1633729442
121,Avera,33.194,-82.5271,296.37,78,50,1.32,US,1633729444
122,Bambous Virieux,-20.3428,57.7575,294.29,78,40,1.54,MU,1633729445
123,Newport,51.5877,-2.9984,288.07,90,72,1.48,GB,1633729415
124,Kavieng,-2.5744,150.7967,300.99,77,95,2.6,PG,1633729448
125,Bubaque,11.2833,-15.8333,301.54,82,24,3.89,GW,1633729449
126,Gonbad-e Kāvūs,37.25,55.1672,286.68,66,100,2.02,IR,1633729453
127,Pemangkat,1.1667,108.9667,298.72,84,23,3.59,ID,1633729455
128,George Town,5.4112,100.3354,298.79,93,20,0.89,MY,1633729353
129,Popondetta,-8.7537,148.2534,301.33,67,57,0.8,PG,1633729457
130,Khatanga,71.9667,102.5,266.81,96,98,1.66,RU,1633729067
131,Hobyo,5.3505,48.5268,298.6,86,13,10.47,SO,1633729185
132,Pangnirtung,66.1451,-65.7125,273.15,86,90,1.54,CA,1633729461
133,Chui,-33.6971,-53.4616,284.84,67,94,3.41,UY,1633729189
134,Awjilah,29.1081,21.2869,298.61,24,0,3.69,LY,1633729464
135,Port Elizabeth,-33.918,25.5701,289.32,74,97,3.77,ZA,1633729198
136,Ulladulla,-35.35,150.4667,288.65,46,13,2.45,AU,1633729466
137,Mabai,23.0128,104.4508,286.79,95,50,2.33,CN,1633729468
138,Aykhal,66.0,111.5,272.91,96,100,10.91,RU,1633729469
139,Mar del Plata,-38.0023,-57.5575,285.98,62,0,4.92,AR,1633729075
140,Te Anau,-45.4167,167.7167,282.16,91,98,0.19,NZ,1633729473
141,Nome,64.5011,-165.4064,277.19,81,90,8.23,US,1633729470
142,Kenai,60.5544,-151.2583,279.24,90,90,2.06,US,1633729475
143,Russell,32.3502,-85.1999,300.97,56,1,4.63,US,1633729184
144,Wuwei,37.9281,102.6414,276.35,46,94,3.78,CN,1633729478
145,Kavaratti,10.5669,72.642,300.98,77,87,6.51,IN,1633729480
146,Mehamn,71.0357,27.8492,275.1,72,100,3.79,NO,1633729481
147,Mogok,22.9167,96.5,291.36,93,7,0.75,MM,1633729483
148,Castro,-24.7911,-50.0119,290.06,85,99,2.9,BR,1633729484
149,Codrington,-38.2667,141.9667,284.51,68,80,4.51,AU,1633729487
150,Coquimbo,-29.9533,-71.3436,289.0,67,20,6.69,CL,1633729305
151,Progreso,21.2833,-89.6667,302.1,73,94,5.61,MX,1633729489
152,Qaanaaq,77.484,-69.3632,268.37,74,100,3.4,GL,1633729050
153,Igrim,63.1906,64.4162,277.09,66,78,7.49,RU,1633729492
154,Bria,6.5423,21.9863,295.07,88,64,0.84,CF,1633729493
155,Samarkand,39.6542,66.9597,282.83,62,75,1.03,UZ,1633729495
156,Faanui,-16.4833,-151.75,298.83,70,3,1.53,PF,1633729496
157,Palmer,42.1584,-72.3287,292.06,67,53,2.45,US,1633729498
158,Marechal Cândido Rondon,-24.5561,-54.0567,295.6,81,44,2.76,BR,1633729499
159,Iqaluit,63.7506,-68.5145,272.98,100,75,4.47,CA,1633729077
160,Ocampo,21.65,-101.5,293.12,34,9,6.73,MX,1633729502
161,Cidreira,-30.1811,-50.2056,290.97,71,100,7.05,BR,1633729503
162,Pahrump,36.2083,-115.9839,294.8,36,67,1.79,US,1633729505
163,Ossora,59.2353,163.0719,274.18,62,80,2.67,RU,1633729507
164,Pinheiro Machado,-31.5783,-53.3811,285.4,85,82,4.8,BR,1633729508
165,Emerald,-23.5333,148.1667,295.27,57,0,5.14,AU,1633729510
166,Tocopilla,-22.092,-70.1979,291.89,68,14,6.8,CL,1633729511
167,‘Āhuimanu,21.4447,-157.8378,300.47,58,20,7.72,US,1633729512
168,Bagdarin,54.4333,113.6,270.42,76,13,1.72,RU,1633729515
169,Torbay,47.6666,-52.7314,279.84,89,90,5.66,CA,1633729516
170,Omaruru,-21.4333,15.9333,293.24,19,0,2.07,NA,1633729518
171,Hay River,60.8156,-115.7999,281.14,53,75,3.6,CA,1633729519
172,Yar-Sale,66.8333,70.8333,274.96,71,100,7.88,RU,1633729522
173,Marsh Harbour,26.5412,-77.0636,300.98,64,97,2.57,BS,1633729523
174,Bethel,41.3712,-73.414,293.7,78,75,2.57,US,1633729525
175,Green Valley,31.8543,-110.9937,306.23,23,51,6.18,US,1633729447
176,Vila,42.0304,-8.1588,285.57,87,71,0.67,PT,1633729527
177,Marystown,47.1666,-55.1483,281.4,100,92,5.36,CA,1633729529
178,Quatre Cocos,-20.2078,57.7625,293.76,74,15,5.85,MU,1633729530
179,Terråk,65.087,12.3715,283.87,92,100,2.77,NO,1633729353
180,Sonoita,31.85,-112.8333,306.22,21,77,3.46,MX,1633729533
181,Puerto Colombia,10.9878,-74.9547,303.2,77,3,5.8,CO,1633729534
182,Morant Bay,17.8815,-76.4093,303.01,78,30,3.8,JM,1633729536
183,Touros,-5.1989,-35.4608,300.65,78,96,6.95,BR,1633729537
184,Waspán,14.7419,-83.9717,303.97,83,72,1.89,NI,1633729539
185,Manthani,18.65,79.6667,298.15,89,24,0.82,IN,1633729540
186,Manggar,-2.8833,108.2667,300.46,80,97,4.17,ID,1633729543
187,Fare,-16.7,-151.0167,298.62,71,3,1.04,PF,1633729544
188,Trairi,-3.2778,-39.2689,299.57,79,22,5.54,BR,1633729468
189,Kiryat Gat,31.61,34.7642,295.57,66,0,2.35,IL,1633729296
190,Kuandian,40.7286,124.7847,286.48,89,100,1.39,CN,1633729549
191,Gwembe,-16.4975,27.6069,294.97,44,7,1.36,ZM,1633729551
192,Tezpur,26.6333,92.8,297.02,93,28,0.88,IN,1633729552
193,Kaitangata,-46.2817,169.8464,282.44,96,100,2.52,NZ,1633729554
194,Nouadhibou,20.931,-17.0347,300.14,54,52,7.2,MR,1633729555
195,Labuhan,-6.8844,112.2051,298.42,76,83,6.01,ID,1633729557
196,Caravelas,-17.7125,-39.2481,296.47,76,98,5.28,BR,1633729558
197,Kieta,-6.2167,155.6333,299.73,87,100,2.24,PG,1633729560
198,Bam,29.106,58.357,296.54,24,0,4.28,IR,1633729561
199,Jérémie,18.65,-74.1167,301.28,80,27,1.78,HT,1633729563
200,Suzhou,31.3114,120.6181,296.98,92,9,2.28,CN,1633729565
201,Iralaya,15.0,-83.2333,304.2,80,10,4.42,HN,1633729566
202,Kruisfontein,-34.0033,24.7314,288.09,70,80,5.12,ZA,1633729282
203,Halifax,44.6453,-63.5724,284.3,62,14,3.09,CA,1633729559
204,Provideniya,64.3833,-173.3,275.03,90,100,5.72,RU,1633729029
205,Hofn,64.2539,-15.2082,282.12,90,94,3.11,IS,1633729571
206,Vardø,70.3705,31.1107,274.26,64,100,1.26,NO,1633729572
207,Najrān,17.4924,44.1277,299.51,46,100,3.38,SA,1633729575
208,Bathsheba,13.2167,-59.5167,299.49,83,40,2.57,BB,1633729576
209,Kirakira,-10.4544,161.9205,300.92,80,100,4.05,SB,1633729578
210,Tadine,-21.55,167.8833,295.32,62,86,4.76,NC,1633729579
211,Lompoc,34.6391,-120.4579,291.78,51,1,6.69,US,1633729581
212,Carnarvon,-24.8667,113.6333,289.19,72,0,7.72,AU,1633729582
213,Cabinda,-5.55,12.2,298.33,85,73,3.53,AO,1633729584
214,Beringovskiy,63.05,179.3167,273.07,95,100,5.2,RU,1633729585
215,San Quintín,30.4833,-115.95,295.93,63,35,9.08,MX,1633729587
216,Faya,18.3851,42.4509,292.44,53,100,4.16,SA,1633729301
217,Estelle,29.8458,-90.1067,303.1,48,20,3.6,US,1633729590
218,Gimli,50.6336,-96.9907,286.16,88,93,4.12,CA,1633729592
219,Fort Nelson,58.8053,-122.7002,284.92,35,20,2.57,CA,1633729351
220,Iguape,-24.7081,-47.5553,292.67,77,85,5.01,BR,1633729594
221,Muros,42.7762,-9.0603,288.29,93,100,1.97,ES,1633729596
222,Maceió,-9.6658,-35.7353,298.84,88,0,3.09,BR,1633729460
223,Saint George,37.1041,-113.5841,288.32,90,90,1.34,US,1633729425
224,Zaysan,47.4667,84.8667,273.77,52,5,1.27,KZ,1633729600
225,Ixtapa,20.7,-105.2,304.72,74,1,4.12,MX,1633729601
226,Boda,4.3189,17.4695,295.3,95,85,1.41,CF,1633729603
227,Alofi,-19.0595,-169.9187,300.09,78,2,5.14,NU,1633729330
228,Birjand,32.8663,59.2211,287.41,24,0,3.09,IR,1633729605
229,Gizo Government Station,-8.103,156.8419,301.19,79,48,4.31,SB,1633729607
230,Almaznyy,48.0448,40.045,277.23,38,14,5.16,RU,1633729608
231,Kyshtovka,56.555,76.6271,277.02,74,7,5.68,RU,1633729609
232,Adrar,20.5022,-10.0711,304.95,8,98,3.51,MR,1633729612
233,Khonsa,27.0167,95.5667,291.94,98,41,1.37,IN,1633729613
234,Vestmanna,62.1564,-7.1664,282.66,100,90,5.14,FO,1633729615
235,Valparaíso,-33.0393,-71.6273,288.85,56,0,3.09,CL,1633729616
236,Cervo,43.6702,-7.4101,289.24,85,77,5.72,ES,1633729618
237,Krasnoshchekovo,51.6708,82.7289,274.82,88,18,3.07,RU,1633729619
238,Klaksvík,62.2266,-6.589,283.66,97,97,6.01,FO,1633729620
239,Choix,26.7092,-108.3219,311.73,21,1,2.36,MX,1633729622
240,Talnakh,69.4865,88.3972,270.46,95,99,1.6,RU,1633729623
241,Prestea,5.4327,-2.1428,296.56,97,68,1.13,GH,1633729625
242,Lagoa,39.05,-27.9833,293.51,61,0,3.2,PT,1633729626
243,Tongliao,43.6125,122.2653,287.27,65,100,5.97,CN,1633729628
244,Turbat,26.0023,63.044,303.13,29,0,0.91,PK,1633729629
245,Richards Bay,-28.783,32.0377,293.57,89,75,3.68,ZA,1633729631
246,Pokhara,28.2333,83.9833,293.09,80,48,1.53,NP,1633729632
247,Ocosingo,17.0667,-92.25,295.33,84,100,1.63,MX,1633729634
248,Iquique,-20.2208,-70.1431,291.17,79,54,3.19,CL,1633729586
249,Christchurch,-43.5333,172.6333,287.27,73,75,1.79,NZ,1633729408
250,Severo-Kuril'sk,50.6789,156.125,281.36,81,80,5.18,RU,1633729641
251,Yatou,37.15,122.3833,292.62,94,100,3.2,CN,1633729642
252,Huarmey,-10.0681,-78.1522,292.61,79,42,4.99,PE,1633729644
253,Longyearbyen,78.2186,15.6401,265.06,79,0,5.14,SJ,1633729426
254,Tevaitoa,-16.7833,-151.5,298.62,70,3,1.14,PF,1633729402
255,Sioux Lookout,50.1001,-91.917,293.19,68,75,2.57,CA,1633729417
256,Chapais,49.7834,-74.8492,292.03,75,50,3.08,CA,1633729650
257,Pisco,-13.7,-76.2167,292.18,72,0,8.75,PE,1633729651
258,Serik,36.9169,31.0989,292.29,42,15,2.11,TR,1633729654
259,Melfi,40.9965,15.6514,286.2,95,100,3.23,IT,1633729656
260,Alekseyevsk,57.8406,108.3492,273.81,95,100,4.11,RU,1633729657
261,Sabang,5.8933,95.3214,300.99,77,100,9.99,ID,1633729659
262,Tanout,14.9709,8.8879,303.34,14,52,4.18,NE,1633729660
263,Kapaa,22.0752,-159.319,300.04,69,40,3.13,US,1633729526
264,Calabozo,8.9242,-67.4293,298.74,89,100,1.81,VE,1633729663
265,Pisz,53.6274,21.8125,273.29,65,0,2.17,PL,1633729664
266,Moskovskiy,55.5991,37.355,273.28,95,0,2.0,RU,1633729666
267,Katsuura,35.1333,140.3,294.95,80,41,1.15,JP,1633729397
268,Bowen,-20.0167,148.2333,293.27,70,34,4.95,AU,1633729668
269,São Mateus do Sul,-25.8742,-50.3828,287.97,99,100,2.0,BR,1633729670
270,Yining,29.0361,114.5636,293.09,97,100,1.36,CN,1633729671
271,Traralgon,-38.1833,146.5333,290.05,54,100,0.38,AU,1633729673
272,Leningradskiy,69.3833,178.4167,268.34,95,100,0.84,RU,1633729674
273,Rundu,-17.9333,19.7667,296.24,41,2,1.38,NA,1633729677
274,Owando,-0.4819,15.8999,296.1,92,95,0.74,CG,1633729678
275,Sambava,-14.2667,50.1667,295.12,80,64,6.96,MG,1633729680
276,Empalme,27.9667,-110.8167,312.26,27,40,5.14,MX,1633729681
277,Ous,60.9058,61.5186,277.55,67,48,4.79,RU,1633729683
278,Mossamedes,-15.1961,12.1522,291.9,75,90,2.6,AO,1633729684
279,Lagunas,-5.2269,-75.6753,303.38,58,100,1.07,PE,1633729685
280,Vila Franca do Campo,37.7167,-25.4333,293.81,82,6,2.79,PT,1633729590
281,Tateyama,34.9833,139.8667,294.87,80,32,0.93,JP,1633729688
282,Pyaozerskiy,65.8333,31.1667,277.41,97,100,2.27,RU,1633729690
283,Tucumcari,35.1717,-103.725,305.06,12,1,8.23,US,1633729444
284,Sri Aman,1.2376,111.4621,298.18,94,69,0.0,MY,1633729692
285,Itarema,-2.9248,-39.9167,299.62,80,27,6.76,BR,1633729694
286,Kiruna,67.8557,20.2251,272.66,100,90,0.0,SE,1633729695
287,Half Moon Bay,37.4636,-122.4286,290.38,56,20,0.89,US,1633729581
288,Lumphat,13.4878,106.9816,295.7,99,100,1.01,KH,1633729698
289,Neepawa,50.2289,-99.4664,290.37,36,79,4.57,CA,1633729699
290,Aberdeen,57.1437,-2.0981,287.92,91,100,2.57,GB,1633729700
291,Bengkulu,-3.8004,102.2655,297.27,89,78,2.67,ID,1633729702
292,Souillac,-20.5167,57.5167,294.36,78,40,1.54,MU,1633729703
293,Ust-Kuyga,70.0167,135.6,261.11,98,83,1.18,RU,1633729705
294,Vestmannaeyjar,63.4427,-20.2734,282.84,90,22,7.05,IS,1633729706
295,Batagay-Alyta,67.8006,130.4114,263.69,69,100,1.75,RU,1633729708
296,Lethem,3.3803,-59.7968,307.18,59,20,2.06,GY,1633729709
297,Neverkino,52.7854,46.7417,277.31,73,7,2.06,RU,1633729711
298,Westport,41.1415,-73.3579,294.13,71,40,1.34,US,1633729713
299,Vanavara,60.34,102.2797,275.05,97,100,5.49,RU,1633729715
300,Makakilo City,21.3469,-158.0858,300.56,51,75,7.72,US,1633729717
301,Shirokiy,49.758,129.523,277.07,79,75,3.82,RU,1633729719
302,Ribeira Grande,38.5167,-28.7,294.22,62,10,3.04,PT,1633729720
303,Candolim,15.5181,73.7626,299.47,87,79,2.56,IN,1633729722
304,Lebanon,36.2081,-86.2911,299.56,62,40,2.57,US,1633729664
305,Pangani,-5.4333,38.9667,297.21,81,8,2.61,TZ,1633729724
306,Yumen,40.2833,97.2,271.47,53,6,4.4,CN,1633729725
307,Teahupoo,-17.8333,-149.2667,298.13,73,22,0.43,PF,1633729727
308,Road Town,18.4167,-64.6167,302.96,66,20,3.6,VG,1633729728
309,Acajutla,13.5928,-89.8275,309.34,72,66,2.41,SV,1633729730
310,San Cristobal,7.7669,-72.225,299.25,75,52,0.93,VE,1633729731
311,Chicama,-7.8447,-79.1469,290.45,73,95,3.78,PE,1633729733
312,Lebu,-37.6167,-73.65,285.85,79,17,2.96,CL,1633729734
313,Tiznit Province,29.5833,-9.5,291.13,64,80,0.69,MA,1633729736
314,Yuanping,38.7153,112.7575,284.62,84,100,0.87,CN,1633729738
315,Juegang,32.3174,121.1855,297.57,92,35,3.74,CN,1633729739
316,Qujing,25.4833,103.7833,287.86,91,98,1.23,CN,1633729741
317,Airai,-8.9266,125.4092,289.73,54,28,1.26,TL,1633729742
318,College,64.8569,-147.8028,277.2,80,90,3.6,US,1633729744
319,Kānker,20.2719,81.4931,296.25,89,3,1.15,IN,1633729746
320,Karratha,-20.7377,116.8463,295.15,28,0,4.51,AU,1633729748
321,Paamiut,61.994,-49.6678,275.24,65,0,4.11,GL,1633729749
322,Berezovyy,51.6667,135.7,276.41,69,100,2.37,RU,1633729751
323,Korhogo,9.45,-5.6333,298.06,76,85,1.53,CI,1633729752
324,São Paulo de Olivença,-3.3783,-68.8725,295.9,99,99,2.42,BR,1633729753
325,Bodden Town,19.2833,-81.25,303.37,74,20,1.79,KY,1633729755
326,Passy,45.9203,6.6877,285.52,93,12,1.1,FR,1633729756
327,Gravdal,68.1214,13.5031,280.09,100,75,1.54,NO,1633729758
328,Saint-Philippe,-21.3585,55.7679,292.02,83,56,6.1,RE,1633729759
329,Necochea,-38.5473,-58.7368,287.06,78,14,3.97,AR,1633729760
330,Plouzané,48.3833,-4.6167,284.75,88,0,2.06,FR,1633729762
331,Santiago,-33.4569,-70.6483,288.68,48,40,4.63,CL,1633729513
332,Nelidovo,56.2211,32.7774,275.78,74,9,1.32,RU,1633729764
333,Grand Gaube,-20.0064,57.6608,293.92,74,0,1.34,MU,1633729766
334,Pāsighāt,28.0667,95.3333,296.41,87,5,1.21,IN,1633729767
335,Sechura,-5.5569,-80.8222,295.39,66,56,7.69,PE,1633729769
336,Iquitos,-3.7481,-73.2472,302.17,70,75,3.09,PE,1633729501
337,Carutapera,-1.195,-46.02,299.98,81,73,3.76,BR,1633729771
338,Nha Trang,12.25,109.1833,301.15,91,100,3.52,VN,1633729773
339,Lander,42.833,-108.7307,288.46,55,75,2.57,US,1633729774
340,Alice Springs,-23.7,133.8833,294.9,49,63,2.06,AU,1633729757
341,Kīhei,20.785,-156.4656,300.3,68,40,8.75,US,1633729777
342,Illapel,-31.6308,-71.1653,287.58,55,0,3.07,CL,1633729587
343,Rome,43.2128,-75.4557,295.57,70,1,1.54,US,1633729779
344,Marawi,7.9986,124.2928,292.4,97,100,1.31,PH,1633729781
345,São Miguel do Araguaia,-13.275,-50.1628,306.22,28,78,0.51,BR,1633729782
346,Hanzhong,33.0728,107.0303,287.21,97,100,0.38,CN,1633729784
347,Pudozh,61.8099,36.5345,281.59,91,100,4.01,RU,1633729785
348,Ahipara,-35.1667,173.1667,288.36,75,100,5.0,NZ,1633729731
349,Taltal,-25.4,-70.4833,289.23,67,3,3.44,CL,1633729790
350,Sidvokodvo,-26.6282,31.4202,283.06,85,5,0.97,SZ,1633729792
351,Chihuahua,28.5,-106.0,301.8,21,1,4.01,MX,1633729793
352,Fortuna,40.5982,-124.1573,290.56,55,86,2.24,US,1633729794
353,Vol'sk,52.0333,47.3833,278.69,67,4,2.09,RU,1633729796
354,Presidente Médici,-11.1753,-61.9014,301.28,65,99,1.13,BR,1633729797
355,Erenhot,43.6475,111.9767,284.88,41,100,11.98,CN,1633729799
356,São Filipe,14.8961,-24.4956,299.99,78,6,3.46,CV,1633729800
357,Weyburn,49.6668,-103.8511,292.27,34,87,2.06,CA,1633729739
358,Port Hedland,-20.3167,118.5667,291.18,100,0,2.57,AU,1633729803
359,Portland,45.5234,-122.6762,288.15,65,75,0.45,US,1633729397
360,Flinders,-34.5833,150.8552,288.98,58,87,1.75,AU,1633729774
361,Evensk,61.95,159.2333,269.31,54,21,2.83,RU,1633729808
362,Bitung,1.4451,125.1824,297.62,82,57,1.78,ID,1633729809
363,Khurai,24.0436,78.3319,296.5,59,0,1.52,IN,1633729811
364,Honiara,-9.4333,159.95,301.74,76,84,2.85,SB,1633729812
365,Merauke,-8.4667,140.3333,299.77,85,84,5.06,ID,1633729813
366,Taketa,32.9652,131.3785,293.03,96,4,0.55,JP,1633729815
367,Ayorou,14.7308,0.9174,306.51,12,16,3.4,NE,1633729816
368,Koumac,-20.5667,164.2833,296.78,63,2,2.38,NC,1633729818
369,Krasnosel'kup,65.7,82.4667,277.94,96,100,6.51,RU,1633729819
370,Koungou,-12.7336,45.2042,295.99,88,75,0.51,YT,1633729820
371,Rodolfo Sánchez Taboada,31.7167,-116.5667,293.21,80,100,3.13,MX,1633729822
372,Kutum,14.2,24.6667,298.79,21,6,3.91,SD,1633729823
373,Yenagoa,4.9247,6.2642,297.66,94,96,1.77,NG,1633729826
374,Porto Santo,33.072,-16.3415,294.36,73,40,5.66,PT,1633729827
375,Luang Prabang,19.8856,102.1347,296.64,78,100,0.2,LA,1633729829
376,Negombo,7.2083,79.8358,298.18,88,20,1.03,LK,1633729620
377,Flin Flon,54.7682,-101.865,287.06,41,1,3.6,CA,1633729831
378,Corumbá,-19.0092,-57.6533,309.1,38,0,2.57,BR,1633729833
379,Shelburne,44.0787,-80.2041,291.11,91,100,3.12,CA,1633729543
380,Edd,13.9297,41.6925,303.07,73,100,6.26,ER,1633729835
381,Dukat,62.55,155.55,261.99,88,83,1.89,RU,1633729837
382,Saskylakh,71.9167,114.0833,264.82,97,100,1.71,RU,1633729838
383,Antsohihy,-14.8796,47.9875,297.01,59,96,3.76,MG,1633729839
384,Vaitape,-16.5167,-151.75,298.82,70,3,1.53,PF,1633729842
385,Abalak,58.1286,68.5944,278.18,72,14,4.8,RU,1633729844
386,Zelenoborskiy,66.845,32.3622,275.37,96,100,1.4,RU,1633729845
387,Nara,34.6851,135.8049,294.09,72,16,1.25,JP,1633729728
388,Mezen',65.8522,44.24,275.49,83,100,3.36,RU,1633729848
389,Visby,57.6409,18.296,282.27,100,90,4.12,SE,1633729759
390,Mazamari,-11.3258,-74.5308,299.94,69,91,1.12,PE,1633729850
391,Saint-Pierre,-21.3393,55.4781,292.09,84,75,4.63,RE,1633729844
392,Gemena,3.25,19.7667,295.58,93,82,0.61,CD,1633729853
393,Ancud,-41.8697,-73.8203,287.89,75,0,1.65,CL,1633729596
394,Itacaré,-14.2775,-38.9967,300.09,82,6,2.85,BR,1633729856
395,Baghdad,33.3406,44.4009,294.1,24,0,3.6,IQ,1633729613
396,Belmonte,-15.8631,-38.8828,296.43,85,35,3.16,BR,1633729858
397,Tegul'det,57.3064,88.1667,279.34,89,100,6.02,RU,1633729860
398,Iskateley,67.6803,53.1512,275.24,67,96,8.76,RU,1633729861
399,Kajiado,-1.8524,36.7768,289.98,79,64,5.43,KE,1633729863
400,Tandil,-37.3217,-59.1332,284.32,73,98,2.53,AR,1633729813
401,Young,-32.6833,-57.6333,290.5,62,93,4.69,UY,1633729866
402,Ileza,61.0533,43.9002,279.91,92,100,2.84,RU,1633729867
403,Predivinsk,57.0669,93.4378,276.53,97,100,5.69,RU,1633729869
404,Pringsewu,-5.3582,104.9744,297.09,92,87,1.67,ID,1633729870
405,Gravelbourg,49.8834,-106.5512,289.3,32,10,3.59,CA,1633729872
406,Zyryanka,65.75,150.85,265.15,80,26,2.14,RU,1633729873
407,Atar,20.5169,-13.0499,307.42,8,100,2.62,MR,1633729875
408,Nakusp,50.2499,-117.8023,284.34,62,0,1.03,CA,1633729877
409,Mount Gambier,-37.8333,140.7667,281.1,87,75,5.66,AU,1633729816
410,Nemuro,43.3236,145.575,285.52,68,70,3.74,JP,1633729880
411,Haines Junction,60.7522,-137.5108,280.12,57,100,3.6,CA,1633729881
412,Rāmhormoz,31.28,49.6035,300.08,9,0,2.16,IR,1633729883
413,Los Llanos de Aridane,28.6585,-17.9182,292.66,88,20,5.66,ES,1633729884
414,Lagos,6.5833,3.75,300.33,89,100,1.88,NG,1633729669
415,Dangara,29.6799,75.8931,297.91,43,0,1.3,IN,1633729887
416,Vanimo,-2.6741,141.3028,300.11,85,67,2.87,PG,1633729888
417,Chernyshevskiy,63.0128,112.4714,273.01,96,100,5.07,RU,1633729889
418,Floresta,-8.6011,-38.5686,305.26,29,100,8.66,BR,1633729850
419,Susa,32.1942,48.2436,299.93,11,0,2.89,IR,1633729892
420,Husavik,66.0449,-17.3389,279.1,94,98,2.95,IS,1633729893
421,Japura,-0.3167,102.35,297.47,92,80,0.98,ID,1633729895
422,Jardim,-21.4803,-56.1381,303.58,45,73,0.56,BR,1633729640
423,Lafiagi,8.8667,5.4167,300.43,77,100,2.03,NG,1633729898
424,Sistranda,63.7256,8.834,284.13,92,100,3.82,NO,1633729899
425,Reconquista,-29.15,-59.65,294.13,42,70,6.28,AR,1633729902
426,Natá,8.3333,-80.5167,300.08,84,92,1.66,PA,1633729903
427,Tessalit,20.1986,1.0114,302.93,11,0,3.74,ML,1633729905
428,Cap Malheureux,-19.9842,57.6142,293.97,74,0,1.34,MU,1633729906
429,Camocim,-2.9022,-40.8411,299.69,81,30,7.55,BR,1633729907
430,Kamaishi,39.2667,141.8833,290.38,85,98,3.08,JP,1633729909
431,At-Bashi,41.1702,75.8106,277.7,67,42,2.87,KG,1633729910
432,Jilib,0.4883,42.7854,298.43,69,7,4.98,SO,1633729912
433,Constitución,-35.3333,-72.4167,287.21,63,20,1.18,CL,1633729667
434,Mubi,10.2676,13.2644,298.95,60,95,1.73,NG,1633729914
435,Olean,42.0776,-78.4297,295.6,60,1,2.06,US,1633729915
436,Methóni,36.8197,21.7049,291.07,68,6,1.58,GR,1633729917
437,Ust-Nera,64.5667,143.2,267.78,94,96,2.8,RU,1633729918
438,Rio Tuba,8.5061,117.4317,301.23,77,100,3.7,PH,1633729919
439,Waipawa,-41.4122,175.5153,287.98,54,74,1.89,NZ,1633729921
440,Pervomayskoye,43.919,46.7102,281.79,63,17,5.11,RU,1633729922
441,Chūru,28.3,74.95,300.89,37,0,2.73,IN,1633729924
442,Sur,22.5667,59.5289,301.15,55,2,3.52,OM,1633729827
443,Hambantota,6.1241,81.1185,298.34,100,40,2.57,LK,1633729926
444,Henties Bay,-22.116,14.2845,286.4,86,0,2.07,NA,1633729928
445,Puerto del Rosario,28.5004,-13.8627,296.01,73,20,5.14,ES,1633729929
446,Zheleznodorozhnyy,55.7503,38.0042,273.07,64,0,1.7,RU,1633729930
447,Chul'man,56.8479,124.9104,268.56,97,96,0.96,RU,1633729932
448,Vangaindrano,-23.35,47.6,292.39,73,84,2.3,MG,1633729933
449,Varhaug,58.6147,5.6457,287.21,92,100,6.03,NO,1633729696
450,Yanam,16.7333,82.2167,297.78,95,98,1.44,IN,1633729936
451,Walvis Bay,-22.9575,14.5053,284.68,82,0,2.06,NA,1633729937
452,Arlit,18.7369,7.3853,302.65,12,0,3.99,NE,1633729938
453,Quebo,11.3333,-14.9333,298.89,91,88,1.66,GW,1633729940
454,Altay,47.8667,88.1167,269.14,55,5,3.08,CN,1633729941
455,Nishihara,26.1842,127.7558,298.99,84,20,3.09,JP,1633729943
456,Capreol,46.706,-80.9225,293.66,61,75,2.06,CA,1633729944
457,Krasnoarmeysk,51.0239,45.6969,280.53,63,8,2.04,RU,1633729945
458,Trelew,-43.249,-65.3051,297.78,14,0,2.14,AR,1633729913
459,Nuuk,64.1835,-51.7216,273.64,69,2,2.24,GL,1633729948
460,High Level,58.5169,-117.136,283.21,53,75,4.12,CA,1633729949
461,Nortelândia,-14.4547,-56.8028,301.52,60,98,2.54,BR,1633729951
462,Shimoda,34.6667,138.95,294.32,79,33,1.6,JP,1633729954
463,Paka,4.6374,103.4368,297.11,94,100,0.0,MY,1633729956
464,Athabasca,54.7169,-113.2854,287.26,24,31,4.48,CA,1633729957
465,Broken Hill,-31.95,141.4333,289.99,25,0,3.6,AU,1633729958
466,Kendari,-3.945,122.4989,296.13,94,100,1.4,ID,1633729960
467,Chokurdakh,70.6333,147.9167,259.95,94,84,3.44,RU,1633729961
468,Santiago de Cao,-7.9589,-79.2392,291.22,82,40,5.14,PE,1633729963
469,Ginir,7.1333,40.7,289.48,85,91,1.21,ET,1633729964
470,Lençóis Paulista,-22.5986,-48.8003,298.36,57,12,3.78,BR,1633729965
471,Opuwo,-18.0607,13.84,295.82,26,46,2.42,NA,1633729967
472,Tomohon,1.3346,124.8392,292.67,88,39,0.38,ID,1633729968
473,Joniškis,56.2403,23.6153,275.66,61,4,2.72,LT,1633729971
474,Lata,40.1629,-8.3327,288.89,90,63,1.1,PT,1633729972
475,Rovinj,45.08,13.64,287.67,64,46,9.23,HR,1633729973
476,Houma,29.5958,-90.7195,303.11,51,0,2.24,US,1633729948
477,Manzhouli,49.6,117.4333,278.24,92,100,5.31,CN,1633729977
478,Manokwari,-0.8667,134.0833,299.88,76,67,1.15,ID,1633729978
479,Tailai,46.3833,123.4,283.05,69,100,4.13,CN,1633729980
480,Kerema,-7.9631,145.7785,299.97,84,80,3.0,PG,1633729981
481,São Félix do Xingu,-6.6447,-51.995,304.92,32,72,0.87,BR,1633729983
482,Juan de Ayolas,-27.4,-56.9,291.18,93,100,3.83,PY,1633729984
483,Prince Rupert,54.3161,-130.3201,282.09,93,90,4.12,CA,1633729985
484,Kyren,51.6828,102.1408,270.03,90,78,1.23,RU,1633729987
485,Rayong,12.8333,101.4333,300.23,99,100,2.26,TH,1633729988
486,Ilulissat,69.2167,-51.1,261.03,78,17,2.54,GL,1633729991
487,Kodyma,48.0988,29.1246,275.46,39,97,5.01,UA,1633729992
488,Hereford,52.0568,-2.7148,287.42,69,17,1.01,GB,1633729993
489,Berlevåg,70.8578,29.0864,275.12,75,75,1.03,NO,1633729995
490,Rawson,-43.3002,-65.1023,295.04,25,0,3.81,AR,1633729818
491,Malanje,-9.5402,16.341,294.03,66,91,1.99,AO,1633729997
492,Virtsu,58.5716,23.5115,284.18,86,88,6.7,EE,1633729999
493,Caconda,-13.7333,15.0667,292.07,68,75,1.12,AO,1633730000
494,Hukuntsi,-24.0,21.75,292.53,12,0,3.55,BW,1633730001
495,Tabuk,17.4189,121.4443,295.64,91,100,1.18,PH,1633730003
496,Belaya Gora,68.5333,146.4167,264.98,78,99,1.48,RU,1633730004
497,Matara,5.9485,80.5353,298.78,86,100,4.07,LK,1633730005
498,Serebryansk,49.6925,83.2892,270.9,85,18,1.71,KZ,1633730007
499,Ugra,54.7777,34.3267,275.88,80,0,0.23,RU,1633730008
500,Beidao,34.5686,105.8933,284.79,89,100,3.29,CN,1633730009
501,Nkoteng,4.5167,12.0333,294.03,98,56,0.34,CM,1633730011
502,Gurlan,41.8447,60.3919,277.19,55,0,4.03,UZ,1633730012
503,Braço do Norte,-28.275,-49.1656,291.79,93,100,0.93,BR,1633730014
504,Turka,49.1541,23.0297,273.71,57,0,1.58,UA,1633730015
505,Pombia,45.653,8.6336,286.7,80,40,1.03,IT,1633730016
506,Warrington,53.3925,-2.5802,288.12,91,40,0.45,GB,1633730018
507,San Patricio,28.017,-97.5169,302.9,43,0,5.26,US,1633730019
508,Jining,35.405,116.5814,289.32,94,100,2.22,CN,1633730020
509,Kuchinarai,16.541,104.05,296.69,91,100,1.18,TH,1633730022
510,Palana,59.1167,159.9667,273.18,74,88,4.41,RU,1633730023
511,Barkhan,29.8977,69.5256,296.63,19,0,2.09,PK,1633729943
512,Phoenix,33.4484,-112.074,305.76,28,75,0.45,US,1633729690
513,Bull Savanna,17.8868,-77.5902,300.78,73,73,3.08,JM,1633730027
514,Batamshinskiy,50.5594,58.2747,276.14,68,1,1.78,KZ,1633730028
515,Pacasmayo,-7.4006,-79.5714,292.34,80,95,6.63,PE,1633730029
516,Goundam,16.4145,-3.6708,306.57,11,31,3.37,ML,1633730031
517,Atbasar,51.8,68.3333,277.44,72,0,2.65,KZ,1633730032
518,Juneau,58.3019,-134.4197,279.42,99,100,4.09,US,1633730033
519,Santa María del Oro,25.9333,-105.3667,300.78,19,0,3.72,MX,1633730035
520,Yerbogachën,61.2767,108.0108,274.1,95,100,5.41,RU,1633730037
521,Springbok,-29.6643,17.8865,281.96,61,18,2.13,ZA,1633730038
522,Wamba,8.9333,8.6,297.5,82,98,0.89,NG,1633730040
523,Yārāda,17.65,83.2667,301.33,89,40,1.03,IN,1633730041
524,Anjangaon,21.1631,77.3094,298.12,76,13,1.5,IN,1633730043
525,Poltavka,54.3663,71.7632,277.69,64,2,5.55,RU,1633730044
526,Kidal,18.4411,1.4078,302.54,10,0,4.98,ML,1633730045
527,Solnechnyy,50.7214,136.6319,276.46,52,97,1.97,RU,1633730047
528,Elko,41.0002,-115.5012,280.77,80,100,5.36,US,1633730048
529,Marabu,4.4148,114.0089,298.23,88,40,0.51,MY,1633730050
530,Ucluelet,48.9329,-125.5528,286.77,72,69,3.25,CA,1633729789
531,Skibbereen,51.55,-9.2667,288.04,97,100,7.29,IE,1633730055
532,Yeniseysk,58.4497,92.1703,278.21,96,100,5.25,RU,1633730056
533,Gore,-46.1028,168.9436,284.94,99,100,1.41,NZ,1633730058
534,Svolvær,68.2342,14.5683,280.75,96,100,1.95,NO,1633730059
535,Rockhampton,-23.3833,150.5,295.09,78,3,4.12,AU,1633730061
536,Aktash,50.3,87.7333,260.3,90,43,1.59,RU,1633730062
537,Praia da Vitória,38.7333,-27.0667,294.29,78,20,2.9,PT,1633730063
538,Akureyri,65.6835,-18.0878,279.11,93,75,4.63,IS,1633730065
539,Tambacounda,13.7539,-13.7586,300.18,89,0,2.06,SN,1633730066
540,Guerrero Negro,27.9769,-114.0611,298.51,58,46,9.37,MX,1633730067
541,Mbaïki,3.8678,17.9892,295.53,91,99,0.77,CF,1633730070
542,Shache,38.4167,77.2406,284.71,32,82,3.22,CN,1633730071
543,Thinadhoo,0.5333,72.9333,301.26,70,24,4.06,MV,1633730073
544,Turukhansk,65.8167,87.9833,276.67,98,100,5.44,RU,1633730074
545,Miranda,3.2499,-76.2281,301.22,84,80,1.18,CO,1633730075
546,Lavrentiya,65.5833,-171.0,274.71,89,100,6.92,RU,1633730077
547,Vao,-22.6667,167.4833,293.76,62,100,5.82,NC,1633730078
548,Dédougou,12.4667,-3.4667,301.75,48,100,3.25,BF,1633730079
549,Olinda,-8.0089,-34.8553,300.0,74,40,4.12,BR,1633729812
550,Tamiahua,21.2667,-97.45,301.21,68,100,4.45,MX,1633730082
551,Soledad,10.9184,-74.7646,303.22,74,40,4.12,CO,1633730083
552,San Miguel de Cozumel,20.5083,-86.9458,302.85,88,99,0.45,MX,1633730085
553,Priargunsk,50.3691,119.1012,278.52,91,100,4.96,RU,1633730086
554,Port Shepstone,-30.7414,30.455,292.15,73,0,2.62,ZA,1633730087
555,Saint-Leu,-21.15,55.2833,291.49,73,4,5.09,RE,1633730089
556,Kalmunai,7.4167,81.8167,299.64,77,100,3.31,LK,1633730090
557,Alūr,12.9833,75.9833,292.84,93,100,4.26,IN,1633730091
558,Kashgar,39.4547,75.9797,285.71,22,40,4.0,CN,1633730093
559,Camabatela,-8.1881,15.375,291.62,94,54,0.4,AO,1633730094
560,Chaman,30.9236,66.4512,293.39,20,0,2.46,PK,1633730095
561,Baturaja,-4.1333,104.1667,295.68,92,55,1.1,ID,1633730097
562,Gambēla,8.25,34.5833,295.46,87,100,1.39,ET,1633730098
563,Okha,53.5739,142.9478,279.45,66,55,6.28,RU,1633730103
564,Mitú,1.1983,-70.1733,299.94,78,98,0.4,CO,1633730105
565,Buribay,51.9617,58.1592,278.59,60,0,1.83,RU,1633730106
566,Padang,-0.9492,100.3543,298.18,85,85,1.25,ID,1633730107
567,Bannu,32.9854,70.6027,300.99,28,0,1.03,PK,1633730109
568,Naze,28.3667,129.4833,297.66,82,84,8.11,JP,1633730110
569,Beira,-19.8436,34.8389,292.09,88,0,2.68,MZ,1633730112
570,Dwārka,22.2394,68.9678,301.52,77,14,2.78,IN,1633730113
571,Cururupu,-1.8283,-44.8683,298.42,84,18,1.69,BR,1633730114
572,Evanston,42.0411,-87.6901,293.9,83,61,2.15,US,1633730017
573,Birao,10.2849,22.7882,298.42,47,77,1.08,CF,1633730117
